{
  "rawInput": [
    "Thai villa;restaurant;New York;Thai",
    "Cosme;restaurant;New York;Mexican",
    "Barbounia;restaurant;New York;Mediterranean"
  ],
  "parsedItems": [
    {
      "_lineNumber": 1,
      "name": "Thai villa",
      "type": "restaurant",
      "city_name": "New York",
      "cuisine_type": "Thai",
      "tags": [
        "Thai"
      ],
      "status": "ready",
      "message": "Ready for submission",
      "placeId": "ChIJfd-PtKNZwokR-m-0kzVTgBs",
      "address": "5 E 19th St, New York, NY 10003, USA",
      "zipcode": "10003",
      "latitude": 40.7390045,
      "longitude": -73.9906704,
      "place_id": "ChIJfd-PtKNZwokR-m-0kzVTgBs",
      "phone": "(212) 802-9999",
      "website": "https://thaivillanyc.com/",
      "neighborhood_id": 1,
      "neighborhood": "Test Neighborhood"
    },
    {
      "_lineNumber": 2,
      "name": "Cosme",
      "type": "restaurant",
      "city_name": "New York",
      "cuisine_type": "Mexican",
      "tags": [
        "Mexican"
      ],
      "status": "ready",
      "message": "Ready for submission",
      "placeId": "ChIJT-gYZKFZwokR7O8LLYuYMjU",
      "address": "35 E 21st St, New York, NY 10010, USA",
      "zipcode": "10010",
      "latitude": 40.7395952,
      "longitude": -73.98835640000001,
      "place_id": "ChIJT-gYZKFZwokR7O8LLYuYMjU",
      "phone": "(315) 512-4131",
      "website": "http://www.cosmenyc.com/",
      "neighborhood_id": 1,
      "neighborhood": "Test Neighborhood"
    },
    {
      "_lineNumber": 3,
      "name": "Barbounia",
      "type": "restaurant",
      "city_name": "New York",
      "cuisine_type": "Mediterranean",
      "tags": [
        "Mediterranean"
      ],
      "status": "ready",
      "message": "Ready for submission",
      "placeId": "ChIJafcWm6FZwokRAD6WiHiQdpE",
      "address": "250 Park Ave S, New York, NY 10003, USA",
      "zipcode": "10003",
      "latitude": 40.7383263,
      "longitude": -73.9880646,
      "place_id": "ChIJafcWm6FZwokRAD6WiHiQdpE",
      "phone": "(212) 995-0242",
      "website": "https://barbounia.com/",
      "neighborhood_id": 1,
      "neighborhood": "Test Neighborhood"
    }
  ],
  "processedItems": [
    {
      "_lineNumber": 1,
      "name": "Thai villa",
      "type": "restaurant",
      "city_name": "New York",
      "cuisine_type": "Thai",
      "tags": [
        "Thai"
      ],
      "status": "ready",
      "message": "Ready for submission",
      "placeId": "ChIJfd-PtKNZwokR-m-0kzVTgBs",
      "address": "5 E 19th St, New York, NY 10003, USA",
      "zipcode": "10003",
      "latitude": 40.7390045,
      "longitude": -73.9906704,
      "place_id": "ChIJfd-PtKNZwokR-m-0kzVTgBs",
      "phone": "(212) 802-9999",
      "website": "https://thaivillanyc.com/",
      "neighborhood_id": 1,
      "neighborhood": "Test Neighborhood"
    },
    {
      "_lineNumber": 2,
      "name": "Cosme",
      "type": "restaurant",
      "city_name": "New York",
      "cuisine_type": "Mexican",
      "tags": [
        "Mexican"
      ],
      "status": "ready",
      "message": "Ready for submission",
      "placeId": "ChIJT-gYZKFZwokR7O8LLYuYMjU",
      "address": "35 E 21st St, New York, NY 10010, USA",
      "zipcode": "10010",
      "latitude": 40.7395952,
      "longitude": -73.98835640000001,
      "place_id": "ChIJT-gYZKFZwokR7O8LLYuYMjU",
      "phone": "(315) 512-4131",
      "website": "http://www.cosmenyc.com/",
      "neighborhood_id": 1,
      "neighborhood": "Test Neighborhood"
    },
    {
      "_lineNumber": 3,
      "name": "Barbounia",
      "type": "restaurant",
      "city_name": "New York",
      "cuisine_type": "Mediterranean",
      "tags": [
        "Mediterranean"
      ],
      "status": "ready",
      "message": "Ready for submission",
      "placeId": "ChIJafcWm6FZwokRAD6WiHiQdpE",
      "address": "250 Park Ave S, New York, NY 10003, USA",
      "zipcode": "10003",
      "latitude": 40.7383263,
      "longitude": -73.9880646,
      "place_id": "ChIJafcWm6FZwokRAD6WiHiQdpE",
      "phone": "(212) 995-0242",
      "website": "https://barbounia.com/",
      "neighborhood_id": 1,
      "neighborhood": "Test Neighborhood"
    }
  ],
  "readyItems": [
    {
      "_lineNumber": 1,
      "name": "Thai villa",
      "type": "restaurant",
      "city_name": "New York",
      "cuisine_type": "Thai",
      "tags": [
        "Thai"
      ],
      "status": "ready",
      "message": "Ready for submission",
      "placeId": "ChIJfd-PtKNZwokR-m-0kzVTgBs",
      "address": "5 E 19th St, New York, NY 10003, USA",
      "zipcode": "10003",
      "latitude": 40.7390045,
      "longitude": -73.9906704,
      "place_id": "ChIJfd-PtKNZwokR-m-0kzVTgBs",
      "phone": "(212) 802-9999",
      "website": "https://thaivillanyc.com/",
      "neighborhood_id": 1,
      "neighborhood": "Test Neighborhood"
    },
    {
      "_lineNumber": 2,
      "name": "Cosme",
      "type": "restaurant",
      "city_name": "New York",
      "cuisine_type": "Mexican",
      "tags": [
        "Mexican"
      ],
      "status": "ready",
      "message": "Ready for submission",
      "placeId": "ChIJT-gYZKFZwokR7O8LLYuYMjU",
      "address": "35 E 21st St, New York, NY 10010, USA",
      "zipcode": "10010",
      "latitude": 40.7395952,
      "longitude": -73.98835640000001,
      "place_id": "ChIJT-gYZKFZwokR7O8LLYuYMjU",
      "phone": "(315) 512-4131",
      "website": "http://www.cosmenyc.com/",
      "neighborhood_id": 1,
      "neighborhood": "Test Neighborhood"
    },
    {
      "_lineNumber": 3,
      "name": "Barbounia",
      "type": "restaurant",
      "city_name": "New York",
      "cuisine_type": "Mediterranean",
      "tags": [
        "Mediterranean"
      ],
      "status": "ready",
      "message": "Ready for submission",
      "placeId": "ChIJafcWm6FZwokRAD6WiHiQdpE",
      "address": "250 Park Ave S, New York, NY 10003, USA",
      "zipcode": "10003",
      "latitude": 40.7383263,
      "longitude": -73.9880646,
      "place_id": "ChIJafcWm6FZwokRAD6WiHiQdpE",
      "phone": "(212) 995-0242",
      "website": "https://barbounia.com/",
      "neighborhood_id": 1,
      "neighborhood": "Test Neighborhood"
    }
  ]
}